[
    {
        "id": "downtown",
        "name": "Downtown SparkleWash",
        "address": "123 Clean Street, Laundryville, LV 12345",
        "phone": "(555) 123-4567",
        "hours": "Mon-Fri: 7am-7pm, Sat: 9am-5pm, Sun: Closed",
        "image": "horizontal.svg",
        "services": ["Wash & Fold", "Dry Cleaning", "Press Only", "Express"],
        "pickupDelivery": true,
        "twentyFourHour": true,
        "coordinates": {
            "lat": 40.7128,
            "lng": -74.0060
        }
    },
    {
        "id": "uptown",
        "name": "Uptown SparkleWash",
        "address": "456 Fresh Avenue, Laundryville, LV 12345",
        "phone": "(555) 234-5678",
        "hours": "Mon-Fri: 8am-8pm, Sat: 10am-4pm, Sun: Closed",
        "image": "eaglepeak.jpg",
        "services": ["Wash & Fold", "Dry Cleaning", "Alterations"],
        "pickupDelivery": true,
        "twentyFourHour": false,
        "coordinates": {
            "lat": 40.7228,
            "lng": -74.0160
        }
    },
    {
        "id": "midtown",
        "name": "Midtown SparkleWash",
        "address": "789 Soap Lane, Laundryville, LV 12345",
        "phone": "(555) 345-6789",
        "hours": "Mon-Fri: 7:30am-6:30pm, Sat: 9am-3pm, Sun: Closed",
        "image": "midtown.jpg",
        "services": ["Wash & Fold", "Bulk Laundry", "Comforters"],
        "pickupDelivery": false,
        "twentyFourHour": true,
        "coordinates": {
            "lat": 40.7328,
            "lng": -74.0260
        }
    },
    {
        "id": "eastside",
        "name": "Eastside SparkleWash",
        "address": "321 Suds Boulevard, Laundryville, LV 12345",
        "phone": "(555) 456-7890",
        "hours": "Mon-Fri: 8am-7pm, Sat: 9am-4pm, Sun: 10am-2pm",
        "image": "eastside.jpg",
        "services": ["Wash & Fold", "Dry Cleaning", "Leather", "Wedding Gowns"],
        "pickupDelivery": true,
        "twentyFourHour": false,
        "coordinates": {
            "lat": 40.7428,
            "lng": -74.0360
        }
    },
    {
        "id": "westside",
        "name": "Westside SparkleWash",
        "address": "654 Linen Road, Laundryville, LV 12345",
        "phone": "(555) 567-8901",
        "hours": "Mon-Fri: 7am-6pm, Sat: 8am-3pm, Sun: Closed",
        "image": "westside.jpg",
        "services": ["Wash & Fold", "Press Only", "Shoe Cleaning"],
        "pickupDelivery": false,
        "twentyFourHour": false,
        "coordinates": {
            "lat": 40.7528,
            "lng": -74.0460
        }
    },
    {
        "id": "northside",
        "name": "Northside SparkleWash",
        "address": "987 Fabric Street, Laundryville, LV 12345",
        "phone": "(555) 678-9012",
        "hours": "Mon-Fri: 8am-8pm, Sat-Sun: 9am-5pm",
        "image": "northside.jpg",
        "services": ["Wash & Fold", "Dry Cleaning", "Curtains", "Rugs"],
        "pickupDelivery": true,
        "twentyFourHour": true,
        "coordinates": {
            "lat": 40.7628,
            "lng": -74.0560
        }
    },
    {
        "id": "southside",
        "name": "Southside SparkleWash",
        "address": "159 Detergent Avenue, Laundryville, LV 12345",
        "phone": "(555) 789-0123",
        "hours": "Mon-Fri: 7am-7pm, Sat: 8am-4pm, Sun: Closed",
        "image": "southside.jpg",
        "services": ["Wash & Fold", "Subscription", "Bulk Laundry"],
        "pickupDelivery": true,
        "twentyFourHour": false,
        "coordinates": {
            "lat": 40.7728,
            "lng": -74.0660
        }
    },
    {
        "id": "central",
        "name": "Central SparkleWash",
        "address": "753 Wash Lane, Laundryville, LV 12345",
        "phone": "(555) 890-1234",
        "hours": "Mon-Sun: 7am-10pm",
        "image": "central.jpg",
        "services": ["Wash & Fold", "Dry Cleaning", "Express", "24/7 Dropoff"],
        "pickupDelivery": true,
        "twentyFourHour": true,
        "coordinates": {
            "lat": 40.7828,
            "lng": -74.0760
        }
    },
    {
        "id": "harbor",
        "name": "Harbor SparkleWash",
        "address": "852 Tide Street, Laundryville, LV 12345",
        "phone": "(555) 901-2345",
        "hours": "Mon-Fri: 7:30am-6:30pm, Sat: 9am-5pm, Sun: 10am-3pm",
        "image": "harbor.jpg",
        "services": ["Wash & Fold", "Dry Cleaning", "Alterations"],
        "pickupDelivery": false,
        "twentyFourHour": false,
        "coordinates": {
            "lat": 40.7928,
            "lng": -74.0860
        }
    },
    {
        "id": "university",
        "name": "University SparkleWash",
        "address": "357 Campus Drive, Laundryville, LV 12345",
        "phone": "(555) 012-3456",
        "hours": "Mon-Fri: 8am-8pm, Sat-Sun: 10am-6pm",
        "image": "university.jpg",
        "services": ["Wash & Fold", "Bulk Discounts", "Student Specials"],
        "pickupDelivery": true,
        "twentyFourHour": true,
        "coordinates": {
            "lat": 40.8028,
            "lng": -74.0960
        }
    }
]